[
  {
    "partnername": "E-TriColor",
    "category": "Print & Druck",
    "beschreibung_de": "Babsy Kunden erhalten einen Rabatt von 10% auf alle Produkte mit dem Stichwort BABSY bei unserer Hausdruckerei E-Tricolor",
    "adresse": "Margarethenstrasse 47, 4053 Basel, CH",
    "kanton": "Basel-Stadt",
    "homepage": "https://www.e-tricolor.ch/",
    "lat": 47.5596,
    "lng": 7.5886
  },
  {
    "partnername": "proinsura",
    "category": "Versicherungen",
    "beschreibung_de": "proinsura ist der Hauptpartner für den Babsy Treuhand-Partner Trusty-Treuhand der sich um Versicherungen kümmert und die Babsy-Eltern und Babsy-Sitter kompetent berät, dass diese kostengünstige und faire Angebote für die notwendige/n Versicherung/en bekommen.",
    "adresse": "Violaweg 73, 4303 Kaiseraugst, CH",
    "kanton": "Basel-Landschaft",
    "homepage": "https://www.proinsura.ch/",
    "lat": 47.5389,
    "lng": 7.7222
  },
  {
    "partnername": "PartyOn",
    "category": "Event & Veranstaltungen",
    "beschreibung_de": "Der Licht- und Tonanlagen-Profi von PartyOn gibt allen Babsy-Kunden einen Nachlass von 10% auf seine Dienstleistungen. Vom Kleinstevent bis zur grossen Konzertbühne ist alles möglich.",
    "adresse": "Weidenweg 28, 4303 Kaiseraugst, CH",
    "kanton": "Basel-Landschaft",
    "homepage": "https://partyon.ch/",
    "lat": 47.5439,
    "lng": 7.7222
  },
  {
    "partnername": "Zangger Websolutions",
    "category": "IT & Web",
    "beschreibung_de": "Das Zangger-Team hat auch unsere Homepage mit viel Liebe und Detail erstellt, es war eine tolle Zusammenarbeit. Sie bieten Kunden, die via Babsy zu Ihnen kommen einen einmaligen Sonder-Rabatt von CHF 200.00 für die Erstellung einer neuen Homepage.",
    "adresse": "Zürcherstrasse 350, 8500 Frauenfeld, CH",
    "kanton": "Thurgau",
    "homepage": "https://ihrewebagentur.ch/",
    "lat": 47.5536,
    "lng": 8.8989
  },
  {
    "partnername": "Uta Grütter Photography",
    "category": "Fotografie",
    "beschreibung_de": "Die unglaublich gute Fotografin Uta Grütter bietet für Familienshootings in ihrem Studio einen jeweiligen Rabatt von CHF 50.00 für Babsy-Mitglieder und Community-Members an. Bitte bei der Buchung des Shootings angeben, dass ihr Babsy-Mitglieder seid mit dem Stichwort BABSY.",
    "adresse": "Schützenmattstrasse 37, 4051 Basel, CH",
    "kanton": "Basel-Stadt",
    "homepage": "https://www.uta-gruetter-photographie.ch/",
    "lat": 47.5646,
    "lng": 7.5886
  },
  {
    "partnername": "seniors@work",
    "category": "Arbeit & Personal",
    "beschreibung_de": "Babsy-Members erhalten für ein Profil auf seniors@work einen einmaligen Gutschein in der Höhe von 15% mit dem Code babsy – jetzt anmelden und profitieren.",
    "adresse": "Tessinerplatz 7, 8004 Zürich, CH",
    "kanton": "Zürich",
    "homepage": "https://www.seniorsatwork.ch/",
    "lat": 47.3769,
    "lng": 8.5312
  },
  {
    "partnername": "Medical Services Weimann",
    "category": "Gesundheit & Medizin",
    "beschreibung_de": "Medical Services Weimann GmbH bietet seit 2007 umfassende Dienstleistungen im Bereich der Notfallmedizin von Beratung, über Vermietung von Ausbildungsmaterial bis hin zu Schulungsangeboten an. Familien erhalten einen Rabatt von 10% auf Kurse bei Angabe des Stichwortes Babsy.",
    "adresse": "Am Pfisterhölzli 25, 8606 Greifensee, CH",
    "kanton": "Zürich",
    "homepage": "https://www.ms-w.ch/",
    "lat": 47.3564,
    "lng": 8.6786
  },
  {
    "partnername": "Evas Couture",
    "category": "Handwerk & Kreatives",
    "beschreibung_de": "Evas Angebot umfasst Nähkurse für Anfänger und Fortgeschrittene. Babsy Parents, Sitters und Community-Members profitieren von einem 10%-igen Rabatt auf Evas Kurse. Stichwort Babsy nutzen.",
    "adresse": "Sengelbachweg 21, 5000 Aarau, CH",
    "kanton": "Aargau",
    "homepage": "https://www.eva-couture.ch/start",
    "lat": 47.3914,
    "lng": 8.0458
  },
  {
    "partnername": "KidisArt",
    "category": "Kinder & Spielwaren",
    "beschreibung_de": "KidisArt ist der Shop für Basteln und Malen für Kinder und Erwachsene. Mit viel Herzblut und Motivation, bietet das Familienunternehmen Spass für Alle. Für alle Babsy-Mitglieder bieten sie sogar einen 10% Rabatt auf das gesamte Sortiment (Stichwort BABSY).",
    "adresse": "Brennereistrasse 3, 4553 Subingen, CH",
    "kanton": "Solothurn",
    "homepage": "https://www.kidis-art.ch/",
    "lat": 47.2167,
    "lng": 7.6333
  },
  {
    "partnername": "ZOUTS!",
    "category": "Kinder & Familie",
    "beschreibung_de": "Mit dem Code babsy10 bekommen unsere Babsy-Mitglieder 10% Rabatt auf alle Abos von ZOUTS!",
    "adresse": "Feierabendstrasse 46, 4051 Basel, CH",
    "kanton": "Basel-Stadt",
    "homepage": "https://www.zouts.ch/",
    "lat": 47.5581,
    "lng": 7.5903
  },
  {
    "partnername": "quitt",
    "category": "Arbeit & Personal",
    "beschreibung_de": "Mit dem Code BABSYQUITT profitieren Sie von den folgenden Startguthaben bei quitt: Start: CHF 20.-, Comfort: CHF 40.-, Flat: CHF 80.-",
    "adresse": "Birmensdorferstrasse 94, 8003 Zürich, CH",
    "kanton": "Zürich",
    "homepage": "https://quitt.ch/",
    "lat": 47.3753,
    "lng": 8.5167
  },
  {
    "partnername": "Babycomeback",
    "category": "Kinder & Familie",
    "beschreibung_de": "Babycomeback ist eine Plattform, die neue und secondhand Kleider und Accessoires für Babys und Kinder anbietet. 10% Rabatt gibt es für Babsy-Members, online und offline im Laden mit dem Code: BABSY",
    "adresse": "Rümelinsplatz 7, 4001 Basel, CH",
    "kanton": "Basel-Stadt",
    "homepage": "https://www.babycomeback.ch/",
    "lat": 47.5569,
    "lng": 7.5881
  },
  {
    "partnername": "UBS helpetica",
    "category": "Finanzen & Banking",
    "beschreibung_de": "Wir arbeiten in partnerschaftlicher Abstimmung mit dem Freiwilligen-Netzwerk UBS Helpetica zusammen.",
    "adresse": "Bahnhofstrasse 45, 8098 Zürich, CH",
    "kanton": "Zürich",
    "homepage": "https://ubs-helpetica.ch/de/",
    "lat": 47.3667,
    "lng": 8.5400
  },
  {
    "partnername": "Fidares",
    "category": "Treuhand & Beratung",
    "beschreibung_de": "Fidares ist der neue Treuhand-Partner von Treuhand-Trusty, dem Hauptpartner für Treuhand-Tätigkeiten rund um alle administrativen Tasks rund um Babsy, Arbeitsvertrag, Sozialabgaben.",
    "adresse": "Netzibodenstr. 23 D, 4133 Pratteln, CH",
    "kanton": "Basel-Landschaft",
    "homepage": "https://www.fidares.com/index.html",
    "lat": 47.5214,
    "lng": 7.6919
  },
  {
    "partnername": "spielwaren zauber.ch",
    "category": "Kinder & Spielwaren",
    "beschreibung_de": "Der virtuelle Shop für Spielwaren spielwaren.ch bietet unseren Babsy-Members einen Rabatt in der Höhe von 6% auf alle online-Käufe mit dem Code Babsy 2024",
    "adresse": "Zwillikerstrasse 64, 8908 Hedingen, CH",
    "kanton": "Zürich",
    "homepage": "https://www.spielwarenzauber.ch/",
    "lat": 47.3039,
    "lng": 8.4839
  },
  {
    "partnername": "Salomea.ch",
    "category": "Beratung & Coaching",
    "beschreibung_de": "Salome Sonderegger bietet als Expertin für Kinderwunsch und Geburtsvorbereitungen Hypnosesitzungen an, mit dem Stichwort BABSY bekommt man einen Rabatt von 30% bei ihr.",
    "adresse": "Schaffhauserrheinweg 55, 4058 Basel, CH",
    "kanton": "Basel-Stadt",
    "homepage": "https://www.salomea.ch/",
    "lat": 47.5689,
    "lng": 7.6147
  },
  {
    "partnername": "KinderYoga",
    "category": "Sport & Wellness",
    "beschreibung_de": "Mit CHF 8 für eine Lektion bietet uns Isabelle hier mehr als 30% Rabatt, einfach sensationell! Jetzt anmelden und mitteilen, dass ihr von Babsy seid!",
    "adresse": "Bruderholzallee 169, 4059 Basel, CH",
    "kanton": "Basel-Stadt",
    "homepage": "mailto:isabellekatharinavionnet@gmail.com",
    "lat": 47.5303,
    "lng": 7.5850
  },
  {
    "partnername": "Stickerella",
    "category": "Kinder & Spielwaren",
    "beschreibung_de": "20% Rabatt auf alle Sticker auf Stickerella.ch für die Babsy-Mitglieder mit BABSY025 UND bei Babsy-Veranstaltungen 'Meet and Greet' erhalten Eltern ein kleines Sticker-Set mit 4 unterschiedlichen Stickern.",
    "adresse": "Wildischachen 18, 5200 Brugg, CH",
    "kanton": "Aargau",
    "homepage": "https://stickerella.ch/",
    "lat": 47.4811,
    "lng": 8.2089
  },
  {
    "partnername": "Maria Alejandra Jimenez",
    "category": "Beratung & Coaching",
    "beschreibung_de": "Maria bietet einen 15% Rabatt für den ersten Monat eines Violin- und/oder Musikkurses an. Sie bietet zudem immer eine freie Probestunde an für neue und Interessierte.",
    "adresse": "Bläsiring 130, 4057 Basel, CH",
    "kanton": "Basel-Stadt",
    "homepage": "https://mariaalejandrajimenez.com/",
    "lat": 47.5486,
    "lng": 7.5897
  },
  {
    "partnername": "Concordia",
    "category": "Versicherungen",
    "beschreibung_de": "Unser Partner für Krankenversicherungslösungen, speziell für Familien. Eine genossenschaftliche Versicherung, der auch wir vertrauen.",
    "adresse": "Pilatusstrasse 20, 6003 Luzern, CH",
    "kanton": "Luzern",
    "homepage": "https://www.concordia.ch/de.html",
    "lat": 47.0502,
    "lng": 8.3093
  }
]
